{
"type": "FeatureCollection",
"name": "drill_n_pumping",
"crs": { "type": "name", "properties": { "name": "urn:ogc:def:crs:OGC:1.3:CRS84" } },
"features": [
{ "type": "Feature", "properties": { "NAME": "Matuto Primary Sch. Borehole", "SCOPE": "Drilling and pump testing", "POPULATION": 300, "DRILLED DEPTH(M)": "306", "YIELD M3 \/H": "4", "PROGRESS %": "100", "LAT": -0.568973439, "LONG": 37.11386039 }, "geometry": { "type": "Point", "coordinates": [ -0.568973439, 37.11386039 ] } },
{ "type": "Feature", "properties": { "NAME": "Gatei Primary Sch. Borehole", "SCOPE": "Drilling and pump testing", "POPULATION": 300, "DRILLED DEPTH(M)": "306", "YIELD M3 \/H": "1.5", "PROGRESS %": "100", "LAT": -0.392698661, "LONG": 37.02427022 }, "geometry": { "type": "Point", "coordinates": [ -0.392698661, 37.02427022 ] } },
{ "type": "Feature", "properties": { "NAME": "Narumoru Health Centre", "SCOPE": "Drilling and pump testing", "POPULATION": 1500, "DRILLED DEPTH(M)": "170", "YIELD M3 \/H": "13.8", "PROGRESS %": "100", "LAT": -0.166515405, "LONG": 37.02226029 }, "geometry": { "type": "Point", "coordinates": [ -0.166515405, 37.02226029 ] } },
{ "type": "Feature", "properties": { "NAME": "Kaongo Ga Aka", "SCOPE": "Drilling and pump testing", "POPULATION": 400, "DRILLED DEPTH(M)": "91", "YIELD M3 \/H": "38.8", "PROGRESS %": "100", "LAT": 0.170482301, "LONG": 37.7407207 }, "geometry": { "type": "Point", "coordinates": [ 0.170482301, 37.7407207 ] } },
{ "type": "Feature", "properties": { "NAME": "Kune Secondary School", "SCOPE": "Drilling and pump testing", "POPULATION": 300, "DRILLED DEPTH(M)": "260", "YIELD M3 \/H": "0.8", "PROGRESS %": "100", "LAT": -0.533078259, "LONG": 37.67691569 }, "geometry": { "type": "Point", "coordinates": [ -0.533078259, 37.67691569 ] } },
{ "type": "Feature", "properties": { "NAME": "Kiathenge Primary and Sec Sch.", "SCOPE": "Drilling and pump testing", "POPULATION": 250, "DRILLED DEPTH(M)": "200", "YIELD M3 \/H": "2.03", "PROGRESS %": "100", "LAT": -0.443545371, "LONG": 37.85248933 }, "geometry": { "type": "Point", "coordinates": [ -0.443545371, 37.85248933 ] } },
{ "type": "Feature", "properties": { "NAME": "Kanyonga Pri. Sch.", "SCOPE": "Drilling and pump testing", "POPULATION": 300, "DRILLED DEPTH(M)": "N\/A", "YIELD M3 \/H": "N\/A", "PROGRESS %": "Mobilization stage", "LAT": -0.776743115, "LONG": 37.60844876 }, "geometry": { "type": "Point", "coordinates": [ -0.776743115, 37.60844876 ] } },
{ "type": "Feature", "properties": { "NAME": "Kamigua Pri. Sch.", "SCOPE": "Drilling and pump testing", "POPULATION": 200, "DRILLED DEPTH(M)": "N\/A", "YIELD M3 \/H": "N\/A", "PROGRESS %": "80", "LAT": -0.524276671, "LONG": 37.80647137 }, "geometry": { "type": "Point", "coordinates": [ -0.524276671, 37.80647137 ] } },
{ "type": "Feature", "properties": { "NAME": "Makawani Pri. Sch.", "SCOPE": "Drilling and pump testing", "POPULATION": 300, "DRILLED DEPTH(M)": "N\/A", "YIELD M3 \/H": "N\/A", "PROGRESS %": "Mobilization stage", "LAT": -0.753625949, "LONG": 37.3064872 }, "geometry": { "type": "Point", "coordinates": [ -0.753625949, 37.3064872 ] } },
{ "type": "Feature", "properties": { "NAME": "Kavaci Pri. and Sec. Sch.", "SCOPE": "Drilling and pump testing", "POPULATION": 400, "DRILLED DEPTH(M)": "200", "YIELD M3 \/H": "4", "PROGRESS %": "100", "LAT": -0.568856919, "LONG": 37.66451782 }, "geometry": { "type": "Point", "coordinates": [ -0.568856919, 37.66451782 ] } },
{ "type": "Feature", "properties": { "NAME": "Nthageiya Pri. Sch.", "SCOPE": "Drilling and pump testing", "POPULATION": 600, "DRILLED DEPTH(M)": "260", "YIELD M3 \/H": "4.5", "PROGRESS %": "100", "LAT": -0.465908943, "LONG": 37.57438972 }, "geometry": { "type": "Point", "coordinates": [ -0.465908943, 37.57438972 ] } },
{ "type": "Feature", "properties": { "NAME": "Gikingiri Community", "SCOPE": "Drilling and pump testing", "POPULATION": 600, "DRILLED DEPTH(M)": "200", "YIELD M3 \/H": "N\/A", "PROGRESS %": "60", "LAT": -0.526342085, "LONG": 37.56517685 }, "geometry": { "type": "Point", "coordinates": [ -0.526342085, 37.56517685 ] } },
{ "type": "Feature", "properties": { "NAME": "Kanyiriri Bridge Community & Pri. Sch.", "SCOPE": "Drilling and pump testing", "POPULATION": 280, "DRILLED DEPTH(M)": "235", "YIELD M3 \/H": "7.5", "PROGRESS %": "100", "LAT": -0.584948349, "LONG": 37.55831663 }, "geometry": { "type": "Point", "coordinates": [ -0.584948349, 37.55831663 ] } },
{ "type": "Feature", "properties": { "NAME": "Kandwa Nyaga Pri. Sch.", "SCOPE": "Drilling and pump testing", "POPULATION": 300, "DRILLED DEPTH(M)": "210", "YIELD M3 \/H": "N\/A", "PROGRESS %": "50", "LAT": -0.392698661, "LONG": 37.02427022 }, "geometry": { "type": "Point", "coordinates": [ -0.392698661, 37.02427022 ] } },
{ "type": "Feature", "properties": { "NAME": "Thumbereria community Borehole (Replacement)", "SCOPE": "Drilling and pump testing", "POPULATION": 400, "DRILLED DEPTH(M)": "210", "YIELD M3 \/H": "10", "PROGRESS %": "100", "LAT": 0.300921184, "LONG": 37.9006501 }, "geometry": { "type": "Point", "coordinates": [ 0.300921184, 37.9006501 ] } },
{ "type": "Feature", "properties": { "NAME": "Kinyaiti Kendaki Community Water Project Borehole", "SCOPE": "Drilling and pump testing", "POPULATION": 2000, "DRILLED DEPTH(M)": "170", "YIELD M3 \/H": "54", "PROGRESS %": "100", "LAT": -0.289421425, "LONG": 36.82426823 }, "geometry": { "type": "Point", "coordinates": [ -0.289421425, 36.82426823 ] } }
]
}
