{
"type": "FeatureCollection",
"name": "uhc_new",
"crs": { "type": "name", "properties": { "name": "urn:ogc:def:crs:OGC:1.3:CRS84" } },
"features": [
{ "type": "Feature", "properties": { "NAME": "Kerugoya District Hospital", "SCOPE": "Cleaning, test pumping and equipping of borehole with pump Erection of 40m3 Pressed Steel Elevated Tank Improvement of rain harvesting facilities including plastic tanks 3x10m3 plastic tanks", "POPULATION": 1400, "PROGRESS %": "Re-advertised", "LAT": -0.504846481, "LONG": 37.28136989 }, "geometry": { "type": "Point", "coordinates": [ -0.504846481, 37.28136989 ] } },
{ "type": "Feature", "properties": { "NAME": "Kianyaga Sub County Hospital", "SCOPE": "Dedicated line from existing network of Riamiatu project and storage to include construction of a 150m3 masonry tank Rain harvesting facilities Construction of ablution block and Septic tank", "POPULATION": 450, "PROGRESS %": "75", "LAT": -0.504314334, "LONG": 37.35630788 }, "geometry": { "type": "Point", "coordinates": [ -0.504314334, 37.35630788 ] } },
{ "type": "Feature", "properties": { "NAME": "Kiangai Health Center+A:D", "SCOPE": "Drilling, development, test pumping and equipping with solar system", "POPULATION": 100, "PROGRESS %": "80", "LAT": -0.576929272, "LONG": 37.19240975 }, "geometry": { "type": "Point", "coordinates": [ -0.576929272, 37.19240975 ] } },
{ "type": "Feature", "properties": { "NAME": "Island Farms Dispensary", "SCOPE": "Rain harvesting facilities to include construction of 100 m3 masonry tank Erection of 50m3 Pressed Steel Elevated Tank", "POPULATION": 120, "PROGRESS %": "93", "LAT": -0.291117706, "LONG": 37.10403052 }, "geometry": { "type": "Point", "coordinates": [ -0.291117706, 37.10403052 ] } },
{ "type": "Feature", "properties": { "NAME": "Kimbimbi Sub District Hospital", "SCOPE": "Connect to Mwea Makima Water system 2.5km away Erection of 50m3 Pressed Steel Elevated Tank Improvement of rain harvesting facilities", "POPULATION": 500, "PROGRESS %": "10", "LAT": -0.61969659, "LONG": 37.37091885 }, "geometry": { "type": "Point", "coordinates": [ -0.61969659, 37.37091885 ] } },
{ "type": "Feature", "properties": { "NAME": "Sagana Sub County Hospital", "SCOPE": "Drilling, development, test pumping and equipping with solar system", "POPULATION": 250, "PROGRESS %": "100", "LAT": -0.669677073, "LONG": 37.20629262 }, "geometry": { "type": "Point", "coordinates": [ -0.669677073, 37.20629262 ] } },
{ "type": "Feature", "properties": { "NAME": "Mutuati Sub District Hospital", "SCOPE": "Drilling and equipping of borehole. Improvement of Water Supply", "POPULATION": 300, "PROGRESS %": "Re-advertised", "LAT": 0.382938878, "LONG": 37.98084446 }, "geometry": { "type": "Point", "coordinates": [ 0.382938878, 37.98084446 ] } },
{ "type": "Feature", "properties": { "NAME": "Gatunga Model Health Centre", "SCOPE": "Drilling, development, test pumping and equipping with solar system", "POPULATION": 150, "PROGRESS %": "100", "LAT": -0.102599385, "LONG": 38.01562988 }, "geometry": { "type": "Point", "coordinates": [ -0.102599385, 38.01562988 ] } },
{ "type": "Feature", "properties": { "NAME": "Makutano Dispensary", "SCOPE": "Drilling, development, test pumping and equipping with solar system", "POPULATION": 100, "PROGRESS %": "100", "LAT": -0.760560065, "LONG": 37.27848289 }, "geometry": { "type": "Point", "coordinates": [ -0.760560065, 37.27848289 ] } },
{ "type": "Feature", "properties": { "NAME": "Kangungi Dispensary", "SCOPE": "Erection of 50m3 Pressed Steel Elevated Tank Improvement of existing ablution block to typical gravity flush toilets and construction of Septic tank - Plumbing works Improvement of rain water harvesting facilities", "POPULATION": 150, "PROGRESS %": "15", "LAT": -0.660187553, "LONG": 37.55376802 }, "geometry": { "type": "Point", "coordinates": [ -0.660187553, 37.55376802 ] } },
{ "type": "Feature", "properties": { "NAME": "Mureru Dispensary", "SCOPE": "Dedicated line from NARUWASCO system 63mm dia. pipe, 1.3 km distance Improvement of rain harvesting facilities. Improvement storage facilities including construction of 225m3 masonry tank  ", "POPULATION": 200, "PROGRESS %": "95", "LAT": -0.124850985, "LONG": 37.03016755 }, "geometry": { "type": "Point", "coordinates": [ -0.124850985, 37.03016755 ] } },
{ "type": "Feature", "properties": { "NAME": "Gatiruri Health Center", "SCOPE": "Drilling and pump testing", "POPULATION": 250, "PROGRESS %": "40", "LAT": -0.519849359, "LONG": 37.69484303 }, "geometry": { "type": "Point", "coordinates": [ -0.519849359, 37.69484303 ] } },
{ "type": "Feature", "properties": { "NAME": "Kiogogo Dispensary", "SCOPE": "Connect EWASCO water Improve existing rain water harvesting system and construct 150 m3 ground masonry tank", "POPULATION": 50, "PROGRESS %": "40", "LAT": -0.5685328, "LONG": 37.83751575 }, "geometry": { "type": "Point", "coordinates": [ -0.5685328, 37.83751575 ] } },
{ "type": "Feature", "properties": { "NAME": "Kiambere Dispensary", "SCOPE": "Drilling, development, test pumping and equipping with solar system", "POPULATION": 200, "PROGRESS %": "100", "LAT": -0.69193792, "LONG": 37.79489727 }, "geometry": { "type": "Point", "coordinates": [ -0.69193792, 37.79489727 ] } },
{ "type": "Feature", "properties": { "NAME": "Gatumbi Dispensary", "SCOPE": "Erection of 50m3 Pressed Steel Elevated Tank ï¿½ Improvement of existing ablution block to typical gravity flush toilets and construction of Septic tank - Plumbing works Improvement of rain harvesting facilities including construction of 100m3 masonry tank", "POPULATION": 100, "PROGRESS %": "40", "LAT": -0.377847784, "LONG": 37.92067865 }, "geometry": { "type": "Point", "coordinates": [ -0.377847784, 37.92067865 ] } }
]
}
